[
  {
    "title": "KTM SX 125, 2012",
    "type": "motorcycle",
    "subtype": "motocross",
    "lat": 52.237684,
    "lng": 21.030086,
    "image": "http://p.vitalmx.com/photos/users/64/photos/83572/s1600_125_SX_90Grad.jpg",
    "price": 55,
    "url": "ktm-sx-125-2012-warsaw-poland"
  },
  {
    "title": "Honda CB 125, 1998",
    "type": "motorcycle",
    "subtype": "street",
    "lat": 52.185241,
    "lng": 21.047501,
    "image": "http://kickstart.bikeexif.com/wp-content/uploads/2014/03/honda-cb750-motohanger.jpg",
    "price": 55,
    "url": "honda-cb-125-1998-warsaw-poland"
  },
  {
    "title": "Unikat Motorworks",
    "type": "motorcycle",
    "subtype": "motocross",
    "lat": 51.113875,
    "lng": 17.007770,
    "image": "http://www.rental-motorcycle.com/images/motorcycles/hondaclr125cityfly-big.jpg",
    "price": 55,
    "url": "honda-clr-125-2010-wroclaw-poland"
  },
  {
    "title": "Motorcycle Indonesia",
    "type": "motorcycle",
    "subtype": "motocross",
    "lat": -0.915462,
    "lng": 113.660875,
    "image": "http://www.dirtrider.com/sites/dirtrider.com/files/styles/large_1x_/public/import/embedded/wp-content/uploads/2014/11/2015-Freeride-05.jpg?itok=4vsAM0so",
    "price": 55,
    "url": "ktm-freeride-250r-2017-sintang-indonesia"
  },
  {
    "title": "Motorcycle Portugal",
    "type": "motorcycle",
    "subtype": "motocross",
    "lat": 41.154832,
    "lng": -8.609959,
    "image": "http://www.totalmotorcycle.com/motorcycles/2012models/2012-Husaberg-FE390a.jpg",
    "price": 55,
    "url": "husaberg-fe390a-2012-portugal-porto"
  }
]
